[
    {
        "name": "Neu-Ulm",
        "latitude": 48.4,
        "longitude": 10.0167
    },
    {
        "name": "Koblenz am Rhein",
        "latitude": 50.35,
        "longitude": 7.6
    },
    {
        "name": "Ilmenau",
        "latitude": 50.6833,
        "longitude": 10.9
    },
    {
        "name": "Potsdam",
        "latitude": 52.39384,
        "longitude": 13.07368
    },
    {
        "name": "Saarbrücken",
        "latitude": 49.2333,
        "longitude": 7
    },
    {
        "name": "Königstein im Taunus",
        "latitude": 50.1833,
        "longitude": 8.46667
    },
    {
        "name": "Bad Kreuznach",
        "latitude": 49.8333,
        "longitude": 7.86667
    },
    {
        "name": "Krebeck",
        "latitude": 51.58836,
        "longitude": 10.12105
    },
    {
        "name": "Bergisch Gladbach",
        "latitude": 50.9833,
        "longitude": 7.13333
    },
    {
        "name": "Wetzlar",
        "latitude": 50.55,
        "longitude": 8.5
    }
]
